City_ID,City,Country,Lat,Lng,Max Temp,Humidity,Cloudiness,Wind Speed,Current Description
0,Albany,US,42.6001,-73.9662,82.56,83,100,6.67,overcast clouds
1,Ribeira Grande,PT,38.5167,-28.7,77.4,83,20,5.75,few clouds
2,Ostrovnoy,RU,68.0531,39.5131,59.63,60,100,11.52,overcast clouds
3,Bluff,NZ,-46.6,168.3333,34.66,83,7,4.76,clear sky
4,Nouakchott,MR,18.0858,-15.9785,85.93,75,15,14.23,few clouds
5,Busselton,AU,-33.65,115.3333,47.82,77,56,9.95,broken clouds
6,Hermanus,ZA,-34.4187,19.2345,62.8,73,92,11.48,overcast clouds
7,Tuktoyaktuk,CA,69.4541,-133.0374,51.8,87,75,9.22,broken clouds
8,Ancud,CL,-41.8697,-73.8203,45.23,81,100,4.38,overcast clouds
9,Putina,PE,-15.4667,-69.4333,44.67,52,25,4.25,scattered clouds
10,Madaoua,NE,14.073,5.96,88.12,45,100,8.34,overcast clouds
11,Ushuaia,AR,-54.8,-68.3,35.26,75,0,4.61,clear sky
12,Ust-Shonosha,RU,61.1531,41.343,61.61,84,100,4.56,light rain
13,Yerbogachen,RU,61.2767,108.0108,51.46,83,47,2.15,scattered clouds
14,Hithadhoo,MV,-0.6,73.0833,82.33,68,71,3.53,broken clouds
15,Morro Bay,US,35.3658,-120.8499,63.48,84,32,3.51,scattered clouds
16,Tasiilaq,GL,65.6145,-37.6368,44.76,95,100,4.63,overcast clouds
17,Victoria,HK,22.2855,114.1577,79.32,94,100,11.01,light rain
18,Tingo Maria,PE,-9.2895,-76.0088,70.11,94,40,3.44,scattered clouds
19,Poronaysk,RU,49.2167,143.1167,59.7,78,3,6.58,clear sky
20,Jamestown,US,42.097,-79.2353,65.79,72,100,5.75,overcast clouds
21,Nome,US,64.5011,-165.4064,44.67,70,100,6.91,overcast clouds
22,Dikson,RU,73.5069,80.5464,42.94,94,100,24.72,light rain
23,Buchanan,LR,5.8808,-10.0467,78.8,76,100,10.31,light rain
24,Santiago Del Estero,AR,-27.7951,-64.2615,54.5,49,2,12.97,clear sky
25,Pombia,IT,45.653,8.6336,90.99,40,20,5.75,few clouds
26,Assiniboia,CA,49.6334,-105.9845,53.42,76,39,2.3,scattered clouds
27,Rikitea,PF,-23.1203,-134.9692,73.31,78,99,17.36,light rain
28,Norman Wells,CA,65.282,-126.8329,51.84,93,75,3.44,broken clouds
29,Ahipara,NZ,-35.1667,173.1667,53.53,79,100,5.55,overcast clouds
30,Upernavik,GL,72.7868,-56.1549,42.01,83,100,11.16,overcast clouds
31,Jalu,LY,29.0331,21.5482,98.98,20,0,13.27,clear sky
32,Kawalu,ID,-7.3817,108.2082,72.03,95,80,2.46,broken clouds
33,Yellowknife,CA,62.456,-114.3525,54.12,100,20,0.0,few clouds
34,Sarai Sidhu,PK,30.5949,71.9698,96.62,44,2,4.25,clear sky
35,Punta Arenas,CL,-53.15,-70.9167,33.82,100,20,4.34,few clouds
36,Mataura,NZ,-46.1927,168.8643,27.16,97,8,2.21,clear sky
37,Wajir,KE,1.7471,40.0573,87.76,33,75,10.36,broken clouds
38,Chokurdakh,RU,70.6333,147.9167,55.96,79,100,5.73,overcast clouds
39,Walvis Bay,NA,-22.9575,14.5053,65.35,55,0,8.05,clear sky
40,Leon Valley,US,29.4952,-98.6186,81.88,81,75,3.44,broken clouds
41,Huangchuan,CN,32.1272,115.0394,82.38,80,100,3.47,moderate rain
42,Fairbanks,US,64.8378,-147.7164,43.61,92,100,6.91,light rain
43,Marsabit,KE,2.3284,37.9899,77.0,36,100,18.84,overcast clouds
44,Faya,SA,18.3851,42.4509,75.31,73,98,9.57,heavy intensity rain
45,Bengkulu,ID,-3.8004,102.2655,77.04,89,99,6.82,overcast clouds
46,Abu Samrah,SY,35.3029,37.1841,91.11,26,0,21.52,clear sky
47,Almenara,BR,-16.1836,-40.6944,84.9,35,8,4.63,light rain
48,Hilo,US,19.7297,-155.09,79.29,93,100,4.61,light rain
49,Syracuse,IT,37.0881,15.2792,89.19,72,35,9.1,light rain
50,Biloela,AU,-24.4167,150.5,50.32,54,0,6.35,clear sky
51,Iqaluit,CA,63.7506,-68.5145,47.93,81,75,4.61,broken clouds
52,Port Macquarie,AU,-31.4333,152.9167,48.88,86,55,10.47,broken clouds
53,Port Alfred,ZA,-33.5906,26.891,67.17,80,0,5.01,clear sky
54,Laredo,US,27.5064,-99.5075,79.09,83,0,9.22,clear sky
55,Grindavik,IS,63.8424,-22.4338,53.55,100,100,19.57,light intensity drizzle
56,Qaanaaq,GL,77.484,-69.3632,37.2,62,0,2.24,clear sky
57,Yulara,AU,-25.2406,130.9889,69.58,37,100,16.98,overcast clouds
58,Butaritari,KI,3.0707,172.7902,81.9,75,11,16.11,few clouds
59,Codrington,AU,-38.2667,141.9667,40.95,87,90,10.69,overcast clouds
60,Mount Gambier,AU,-37.8333,140.7667,43.07,83,100,5.64,overcast clouds
61,Provideniya,RU,64.3833,-173.3,45.36,73,68,5.73,broken clouds
62,Atuona,PF,-9.8,-139.0333,76.32,77,7,17.38,clear sky
63,Poum,NC,-20.2333,164.0167,70.66,59,2,18.57,clear sky
64,Tuatapere,NZ,-46.1333,167.6833,31.26,87,5,2.15,clear sky
65,Airai,TL,-8.9266,125.4092,57.54,83,37,3.09,scattered clouds
66,Puerto Ayora,EC,-0.7393,-90.3518,69.55,84,92,3.0,overcast clouds
67,Maceio,BR,-9.6658,-35.7353,81.84,74,75,4.61,broken clouds
68,Atbasar,KZ,51.8,68.3333,67.24,68,57,13.89,broken clouds
69,Obo,CF,5.3998,26.4869,80.28,71,100,4.76,overcast clouds
70,Constitucion,CL,-35.3333,-72.4167,50.13,59,100,5.5,overcast clouds
71,Deputatskiy,RU,69.3,139.9,51.21,93,49,4.9,scattered clouds
72,Hobart,AU,-42.8794,147.3294,41.05,92,0,6.91,clear sky
73,Balkanabat,TM,39.5108,54.3671,94.6,23,47,4.88,scattered clouds
74,Vaini,TO,-21.2,-175.2,75.36,94,20,8.05,few clouds
75,Votorantim,BR,-23.5467,-47.4378,68.32,74,100,1.9,overcast clouds
76,Tineo,ES,43.3376,-6.4145,75.06,39,2,8.21,clear sky
77,Kholtoson,RU,50.2981,103.3097,56.53,90,100,1.81,overcast clouds
78,Avarua,CK,-21.2078,-159.775,69.85,83,75,12.66,broken clouds
79,Calama,CL,-22.4667,-68.9333,41.49,8,0,23.02,clear sky
80,Tahe,CN,52.3333,124.7333,52.38,98,100,6.08,overcast clouds
81,Ushtobe,KZ,45.2514,77.9838,83.86,25,90,13.87,overcast clouds
82,Tambun,ID,-6.2641,107.0712,82.04,73,47,4.34,scattered clouds
83,Berlevag,NO,70.8578,29.0864,58.95,63,100,16.11,overcast clouds
84,Georgetown,MY,5.4112,100.3354,84.15,79,20,2.3,few clouds
85,Narsaq,GL,60.9167,-46.05,46.62,69,11,6.06,few clouds
86,Taoudenni,ML,22.6783,-3.9836,117.63,7,4,12.91,clear sky
87,Touros,BR,-5.1989,-35.4608,82.96,64,84,16.26,broken clouds
88,Arraial Do Cabo,BR,-22.9661,-42.0278,75.16,78,40,6.91,scattered clouds
89,Avallon,FR,47.4833,3.9,93.42,15,0,12.57,clear sky
90,Tigil,RU,57.8,158.6667,63.95,75,100,10.76,overcast clouds
91,Hualmay,PE,-11.0964,-77.6139,62.11,77,66,4.68,broken clouds
92,Rocha,UY,-34.4833,-54.3333,54.1,63,88,10.22,light rain
93,Porto Novo,BJ,6.4965,2.6036,82.22,57,99,12.08,overcast clouds
94,Mahebourg,MU,-20.4081,57.7,70.09,88,75,19.57,broken clouds
95,Longyearbyen,SJ,78.2186,15.6401,46.24,81,75,8.05,broken clouds
96,Eureka,US,40.8021,-124.1637,59.67,91,62,2.48,broken clouds
97,Shahada,IN,21.55,74.4667,79.75,87,100,11.92,overcast clouds
98,Waddan,LY,29.1614,16.139,97.5,16,0,11.07,clear sky
99,Kupang,ID,-10.1667,123.5833,77.11,82,6,12.41,clear sky
100,Nisia Floresta,BR,-6.0911,-35.2086,84.58,62,92,13.71,overcast clouds
101,Camopi,GF,3.1655,-52.3158,86.92,54,99,5.61,overcast clouds
102,Okmulgee,US,35.6234,-95.9605,75.06,100,100,12.66,overcast clouds
103,Adelanto,US,34.5828,-117.4092,79.03,38,13,4.09,few clouds
104,Mauldin,US,34.7787,-82.3101,81.32,88,100,9.22,mist
105,Bethel,US,41.3712,-73.414,88.47,71,0,11.5,clear sky
106,Tres Arroyos,AR,-38.3739,-60.2798,46.92,59,0,7.74,clear sky
107,Peterhead,GB,57.5058,-1.7981,78.46,80,100,8.86,overcast clouds
108,Necochea,AR,-38.5473,-58.7368,49.46,56,5,7.05,clear sky
109,Celestun,MX,20.8667,-90.4,79.39,79,11,6.11,few clouds
110,Juneau,US,58.3019,-134.4197,52.84,97,75,0.0,broken clouds
111,Skibbereen,IE,51.55,-9.2667,67.1,55,90,4.7,overcast clouds
112,Nyurba,RU,63.2842,118.3319,55.76,93,97,5.57,overcast clouds
113,Faanui,PF,-16.4833,-151.75,76.19,66,100,8.41,overcast clouds
114,Geraldton,AU,-28.7667,114.6,55.81,67,40,11.5,scattered clouds
115,Lodja,CD,-3.4833,23.4333,100.67,14,28,3.2,scattered clouds
116,Carnarvon,AU,-24.8667,113.6333,63.43,55,77,21.45,broken clouds
117,Saint-Philippe,RE,-21.3585,55.7679,71.19,77,100,16.33,overcast clouds
118,Meulaboh,ID,4.1363,96.1285,79.3,80,89,1.5,overcast clouds
119,Sao Filipe,CV,14.8961,-24.4956,79.95,80,100,3.76,overcast clouds
120,Bathsheba,BB,13.2167,-59.5167,86.61,74,40,18.41,scattered clouds
121,Cape Town,ZA,-33.9258,18.4232,70.12,64,0,16.11,clear sky
122,Pastavy,BY,55.1168,26.8326,68.61,62,14,3.24,few clouds
123,La Ronge,CA,55.1001,-105.2842,55.65,82,75,11.5,broken clouds
124,Kyren,RU,51.6828,102.1408,59.97,81,69,0.76,broken clouds
125,Tezu,IN,27.9167,96.1667,82.36,79,48,3.11,scattered clouds
126,Bredasdorp,ZA,-34.5322,20.0403,67.62,58,100,8.34,overcast clouds
127,Port Elizabeth,ZA,-33.918,25.5701,72.32,61,0,11.5,clear sky
128,Masumbwe,TZ,-3.6333,32.1833,88.09,19,30,3.31,scattered clouds
129,Ust-Tsilma,RU,65.441,52.1498,65.01,42,100,5.64,overcast clouds
130,Te Anau,NZ,-45.4167,167.7167,27.03,93,25,0.76,scattered clouds
131,Channel-Port Aux Basques,CA,47.5702,-59.1367,59.31,95,100,12.28,heavy intensity rain
132,Lorengau,PG,-2.0226,147.2712,80.82,81,100,7.31,overcast clouds
133,Torbay,CA,47.6666,-52.7314,56.75,91,100,10.36,moderate rain
134,Vila Velha,BR,-20.3297,-40.2925,78.75,81,100,4.61,overcast clouds
135,Farah,AF,32.5,62.5,101.89,8,0,29.95,clear sky
136,San Patricio,US,28.017,-97.5169,85.89,68,18,7.16,few clouds
137,Beringovskiy,RU,63.05,179.3167,45.54,81,0,10.09,clear sky
138,Kamaishi,JP,39.2667,141.8833,78.62,78,100,10.42,overcast clouds
139,Iracoubo,GF,5.4802,-53.2011,85.53,63,89,9.35,overcast clouds
140,Pachino,IT,36.7186,15.0907,83.37,63,6,2.57,light rain
141,Cidreira,BR,-30.1811,-50.2056,57.69,87,100,20.8,overcast clouds
142,Fortuna,US,40.5982,-124.1573,58.93,94,100,0.0,overcast clouds
143,Bilma,NE,18.6853,12.9164,102.15,23,2,2.84,clear sky
144,Alofi,NU,-19.0595,-169.9187,71.49,94,6,3.44,clear sky
145,Ketchikan,US,55.3422,-131.6461,58.98,72,0,6.91,clear sky
146,Alamogordo,US,32.8995,-105.9603,75.78,64,0,3.44,clear sky
147,Ewa Beach,US,21.3156,-158.0072,78.75,70,0,13.8,clear sky
148,Krasnyye Tkachi,RU,57.4926,39.7563,62.42,78,100,1.63,overcast clouds
149,Skjervoy,NO,70.0311,20.9714,57.2,81,100,29.84,overcast clouds
150,Tautira,PF,-17.7333,-149.15,73.98,69,100,7.99,overcast clouds
151,Bandarbeyla,SO,9.4942,50.8122,81.77,65,100,31.43,overcast clouds
152,Lukulu,ZM,-14.3707,23.242,89.24,7,0,6.62,clear sky
153,Toora-Khem,RU,52.4675,96.11,56.46,90,100,1.66,overcast clouds
154,Anadyr,RU,64.75,177.4833,46.9,75,0,11.18,clear sky
155,Pochutla,MX,15.7432,-96.4661,78.82,71,92,2.71,overcast clouds
156,Broome,US,42.2506,-75.833,77.16,85,100,12.66,mist
157,Hibbing,US,47.4272,-92.9377,67.42,94,0,4.61,clear sky
158,Nhulunbuy,AU,-12.2333,136.7667,74.01,88,45,6.91,scattered clouds
159,Ponta Do Sol,PT,32.6667,-17.1,79.43,73,33,0.63,scattered clouds
160,Mahibadhoo,MV,3.7833,72.9667,81.9,80,100,11.68,overcast clouds
161,Banda Aceh,ID,5.5577,95.3222,80.33,82,100,13.2,overcast clouds
162,Cockburn Town,TC,21.4612,-71.1419,82.09,76,46,18.59,scattered clouds
163,Penzance,GB,50.1186,-5.5371,77.68,57,20,8.05,few clouds
164,Mitchell,US,43.7094,-98.0298,66.11,79,0,11.5,clear sky
165,Nicoya,CR,10.1483,-85.452,78.94,82,61,3.15,broken clouds
166,Ust-Nera,RU,64.5667,143.2,65.17,63,31,2.42,scattered clouds
167,Kununurra,AU,-15.7667,128.7333,69.78,73,3,0.0,clear sky
168,Pudozh,RU,61.8099,36.5345,63.25,60,100,3.29,overcast clouds
169,Port-Gentil,GA,-0.7193,8.7815,82.36,61,20,12.66,few clouds
170,Diego De Almagro,CL,-26.3667,-70.05,70.47,4,0,3.24,clear sky
171,Freeport,US,40.6576,-73.5832,90.97,66,0,14.97,clear sky
172,Sierpc,PL,52.8568,19.6691,68.95,44,44,3.29,light rain
173,Talnakh,RU,69.4865,88.3972,55.56,87,99,3.71,overcast clouds
174,Guerrero Negro,MX,27.9769,-114.0611,73.58,74,100,5.75,overcast clouds
175,Dabakala,CI,8.3667,-4.4333,81.77,64,100,5.21,overcast clouds
176,Bowen,AU,-20.0167,148.2333,58.53,75,13,8.84,few clouds
177,Esso,RU,55.9333,158.7,53.71,71,100,7.49,overcast clouds
178,Goya,AR,-29.14,-59.2626,51.67,87,100,8.77,overcast clouds
179,Cherskiy,RU,68.75,161.3,61.09,81,100,9.19,moderate rain
180,Malitubog,PH,7.3156,124.6381,74.59,95,100,3.11,overcast clouds
181,Noumea,NC,-22.2763,166.4572,70.0,99,47,6.53,scattered clouds
182,East London,ZA,-33.0153,27.9116,70.74,73,0,10.36,clear sky
183,Kuytun,RU,54.3419,101.5036,60.26,72,100,5.37,overcast clouds
184,Arrecife,ES,28.963,-13.5477,82.38,51,20,20.71,few clouds
185,Mapiripan,CO,2.8892,-72.1256,81.09,76,42,1.68,moderate rain
186,Puerto Madryn,AR,-42.7692,-65.0385,45.97,56,100,12.48,overcast clouds
187,Bud,US,39.447,-86.1758,74.68,98,85,6.15,overcast clouds
188,Launceston,AU,-41.45,147.1667,39.15,89,1,4.61,clear sky
189,Kilwinning,GB,55.6533,-4.7067,75.38,60,20,12.66,few clouds
190,Saskylakh,RU,71.9167,114.0833,55.54,76,5,10.47,clear sky
191,Sobolevo,RU,54.4299,31.8996,67.86,64,67,9.73,broken clouds
192,Severo-Kurilsk,RU,50.6789,156.125,55.0,97,100,22.01,moderate rain
193,Caravelas,BR,-17.7125,-39.2481,80.37,54,20,7.63,few clouds
194,Collie,AU,-33.3667,116.15,39.15,97,9,4.29,clear sky
195,Morwa,IN,22.9,73.8333,78.69,96,100,9.35,very heavy rain
196,Bintulu,MY,3.1667,113.0333,79.21,94,20,2.3,few clouds
197,Miles City,US,46.4083,-105.8406,63.57,72,0,0.0,clear sky
198,Huntsville,US,34.7304,-86.5861,80.85,90,40,8.05,scattered clouds
199,Linguere,SN,15.3953,-15.1193,95.94,45,70,8.55,broken clouds
200,Khatanga,RU,71.9667,102.5,60.08,65,62,4.74,broken clouds
201,Voznesenye,RU,61.0106,35.4781,65.37,52,96,3.29,overcast clouds
202,Agirish,RU,61.9247,63.0231,75.6,35,17,7.0,few clouds
203,Saldanha,ZA,-33.0117,17.9442,69.85,72,87,9.13,overcast clouds
204,Kapaa,US,22.0752,-159.319,77.11,84,75,13.8,broken clouds
205,Talaya,RU,61.3833,152.75,60.06,65,100,6.51,overcast clouds
206,Lebu,CL,-37.6167,-73.65,48.09,68,100,6.08,overcast clouds
207,Chuy,UY,-33.6971,-53.4616,54.95,66,1,12.12,clear sky
208,Chiang Khong,TH,20.2613,100.4046,74.91,95,17,1.68,few clouds
209,Pisco,PE,-13.7,-76.2167,59.05,82,100,1.14,overcast clouds
210,Nikolskoye,RU,59.7035,30.7861,70.88,52,97,4.25,overcast clouds
211,Wyszkow,PL,52.5928,21.4584,76.71,43,85,8.55,overcast clouds
212,Nemuro,JP,43.3236,145.575,67.06,100,100,12.93,light rain
213,Hasaki,JP,35.7333,140.8333,82.8,87,100,24.56,overcast clouds
214,Henties Bay,NA,-22.116,14.2845,61.3,67,0,11.81,clear sky
215,Waitati,NZ,-45.75,170.5667,38.8,60,8,6.29,clear sky
216,Inirida,CO,3.8653,-67.9239,76.03,94,100,1.03,overcast clouds
217,Kaitangata,NZ,-46.2817,169.8464,31.33,90,6,4.14,clear sky
218,Karratha,AU,-20.7377,116.8463,71.82,32,100,14.97,overcast clouds
219,Thompson,CA,55.7435,-97.8558,55.56,88,75,12.66,broken clouds
220,Le Port,RE,-20.9373,55.2919,72.25,68,46,4.23,scattered clouds
221,Tiksi,RU,71.6872,128.8694,54.43,67,56,11.99,broken clouds
222,Obertyn,UA,48.7003,25.1701,62.65,82,100,6.87,overcast clouds
223,Puerto Cabezas,NI,14.0351,-83.3888,75.16,100,75,0.0,light thunderstorm
224,Monteagudo,BO,-19.8167,-63.9833,47.77,94,100,5.55,overcast clouds
225,Port Hardy,CA,50.6996,-127.4199,53.78,100,100,4.61,mist
226,Mackay,AU,-21.15,149.2,50.68,65,3,7.7,clear sky
227,Kruisfontein,ZA,-34.0033,24.7314,76.17,33,77,6.91,broken clouds
228,Pevek,RU,69.7008,170.3133,46.98,56,99,12.21,overcast clouds
229,Camacha,PT,33.0833,-16.3333,72.82,64,40,13.8,scattered clouds
230,Bambous Virieux,MU,-20.3428,57.7575,70.05,88,75,19.57,light rain
231,Okhotsk,RU,59.3833,143.3,58.59,78,100,22.53,light rain
232,Umm Lajj,SA,25.0213,37.2685,90.1,65,38,6.4,scattered clouds
233,Nzega,RW,-2.479,29.5564,75.18,29,92,5.93,overcast clouds
234,Lompoc,US,34.6391,-120.4579,59.52,88,100,18.01,mist
235,Susangerd,IR,31.5608,48.1831,121.3,5,0,26.15,clear sky
236,Tiarei,PF,-17.5333,-149.3333,73.42,68,100,9.78,overcast clouds
237,Manoel Urbano,BR,-8.8389,-69.2597,85.6,60,47,2.26,scattered clouds
238,Novoukrainskiy,RU,44.8969,38.0522,95.23,15,0,19.91,clear sky
239,Saint-Augustin,CA,51.226,-58.6502,67.21,43,100,4.76,overcast clouds
240,Bellavista,PE,-7.0561,-76.5911,74.68,88,40,0.0,scattered clouds
241,Kosh-Agach,RU,50.0,88.6667,54.12,79,67,4.7,light rain
242,Zhangye,CN,38.9342,100.4517,75.9,64,100,4.83,overcast clouds
243,Nouadhibou,MR,20.931,-17.0347,85.98,58,6,11.5,clear sky
244,Chadiza,ZM,-14.0678,32.4392,82.53,18,0,5.53,clear sky
245,Mar Del Plata,AR,-38.0023,-57.5575,53.94,79,0,3.0,clear sky
246,Hovd,MN,48.0056,91.6419,70.48,42,7,2.42,clear sky
247,Grand Gaube,MU,-20.0064,57.6608,70.2,80,9,8.99,light rain
248,Vaitape,PF,-16.5167,-151.75,76.17,66,100,8.5,overcast clouds
249,Coaticook,CA,45.1334,-71.7991,69.57,99,100,3.58,overcast clouds
250,Novo Aripuana,BR,-5.1206,-60.3797,91.13,45,16,3.78,few clouds
251,Onguday,RU,50.75,86.15,57.79,94,82,1.9,broken clouds
252,Killarney,IE,52.05,-9.5167,75.25,43,0,4.61,clear sky
253,Buala,SB,-8.145,159.5921,79.23,81,45,2.89,light rain
254,Morant Bay,JM,17.8815,-76.4093,87.71,77,34,13.91,scattered clouds
255,Adrar,MR,20.5022,-10.0711,109.85,5,84,21.79,broken clouds
256,Pemangkat,ID,1.1667,108.9667,81.12,80,91,7.56,overcast clouds
257,Zyryanka,RU,65.75,150.85,65.91,68,6,8.03,clear sky
258,Sudova Vyshnya,UA,49.7889,23.3722,62.62,83,100,7.25,overcast clouds
259,Kodiak,US,57.79,-152.4072,53.11,82,100,3.44,light rain
260,Alekseyevsk,RU,57.8406,108.3492,51.12,89,32,1.95,scattered clouds
261,Mareeba,AU,-17.0,145.4333,63.32,87,10,2.75,clear sky
262,Chernyy Yar,RU,48.0624,46.1091,96.28,14,35,9.62,scattered clouds
263,The Valley,AI,18.217,-63.0578,86.09,70,20,13.8,few clouds
264,Honiara,SB,-9.4333,159.95,76.64,87,100,1.95,overcast clouds
265,Mamlyutka,KZ,54.9375,68.5394,78.82,54,45,12.57,scattered clouds
266,Ponta Delgada,PT,37.7333,-25.6667,74.12,73,75,8.05,broken clouds
267,Sarakhs,IR,36.5449,61.1577,96.71,13,0,15.79,clear sky
268,Qasigiannguit,GL,68.8193,-51.1922,36.18,95,100,6.87,overcast clouds
269,Leningradskiy,RU,69.3833,178.4167,42.84,64,100,7.81,overcast clouds
270,Kavieng,PG,-2.5744,150.7967,80.83,77,84,6.4,broken clouds
271,Praia Da Vitoria,PT,38.7333,-27.0667,75.76,94,75,9.57,broken clouds
272,Belozerskoye,RU,55.8214,65.5842,73.54,56,2,6.85,clear sky
273,Korla,CN,41.7597,86.1469,94.26,18,4,5.14,clear sky
274,Acari,PE,-15.4311,-74.6158,68.02,61,67,4.97,broken clouds
275,Byron Bay,AU,-28.65,153.6167,52.95,86,20,12.33,light rain
276,Omsukchan,RU,62.5333,155.8,52.75,77,62,7.72,broken clouds
277,Preobrazheniye,RU,42.9019,133.9064,66.25,77,0,9.84,clear sky
278,Hamilton,US,39.1834,-84.5333,80.67,91,75,6.91,broken clouds
279,Dunedin,NZ,-45.8742,170.5036,38.8,60,7,5.01,clear sky
280,College,US,64.8569,-147.8028,43.59,92,100,6.91,light rain
281,Kibala,TD,9.1104,18.3463,89.55,58,20,5.75,few clouds
282,Nantucket,US,41.2835,-70.0995,84.09,85,0,18.41,clear sky
283,Miyazu,JP,35.5333,135.1833,76.33,93,100,6.33,overcast clouds
284,La Palma,US,33.8464,-118.0467,80.1,83,0,0.0,clear sky
285,Point Pedro,LK,9.8167,80.2333,80.96,81,100,22.95,overcast clouds
286,Matay,EG,28.419,30.7792,101.68,19,0,12.55,clear sky
287,Qeshm,IR,26.9581,56.2719,102.09,58,3,9.01,clear sky
288,Yatou,CN,37.15,122.3833,69.6,95,100,13.51,light rain
289,Araouane,ML,18.9048,-3.5265,107.53,18,74,11.74,broken clouds
290,New Norfolk,AU,-42.7826,147.0587,40.71,80,6,2.28,clear sky
291,Mayskiy,RU,47.6931,40.1025,94.41,14,0,11.54,clear sky
292,Vanderhoof,CA,54.0166,-124.0198,51.91,60,0,0.72,clear sky
293,Puerto Montt,CL,-41.4698,-72.9447,38.23,100,40,0.0,mist
294,Baykit,RU,61.67,96.37,60.06,83,100,3.33,overcast clouds
295,Esperance,AU,-33.8667,121.9,52.99,74,100,21.52,moderate rain
296,Kuah,MY,6.3265,99.8432,82.38,83,20,3.44,few clouds
297,Estelle,US,29.8458,-90.1067,84.99,76,75,3.44,broken clouds
298,Uruacu,BR,-14.5247,-49.1408,92.08,22,64,6.33,broken clouds
299,La Reforma,MX,25.0833,-108.05,81.9,83,72,3.4,broken clouds
300,Vorotynets,RU,56.0603,45.8633,79.16,58,96,4.27,overcast clouds
301,Aykhal,RU,66.0,111.5,52.63,79,45,1.86,scattered clouds
302,Mabaruma,GY,8.2,-59.7833,83.71,74,91,4.12,overcast clouds
303,Vila Franca Do Campo,PT,37.7167,-25.4333,73.81,71,75,3.58,broken clouds
304,Madimba,TZ,-10.4,40.3333,83.52,51,75,11.5,broken clouds
305,Ballina,AU,-28.8667,153.5667,53.02,84,22,12.5,light rain
306,Houma,US,29.5958,-90.7195,84.99,88,13,3.0,few clouds
307,Shelburne,CA,44.0787,-80.2041,59.45,98,100,10.76,overcast clouds
308,Potam,MX,27.6,-110.3833,85.55,71,99,2.66,overcast clouds
309,Coquimbo,CL,-29.9533,-71.3436,51.53,71,0,2.3,clear sky
310,Ilulissat,GL,69.2167,-51.1,35.35,96,100,10.36,light rain
311,Istok,XK,42.7808,20.4875,74.98,62,79,12.75,broken clouds
312,Eydhafushi,MV,5.1033,73.0708,81.1,83,90,11.1,overcast clouds
313,Sarab,IR,38.6066,44.9883,91.71,24,5,3.71,clear sky
314,Namibe,AO,-15.1961,12.1522,70.79,72,32,11.32,scattered clouds
315,Ambilobe,MG,-13.2,49.05,79.75,54,12,2.28,few clouds
316,Cayenne,GF,4.9333,-52.3333,88.09,18,75,8.05,broken clouds
317,Pueblo,US,38.2545,-104.6091,75.42,79,1,3.0,clear sky
318,Emerald,AU,-23.5333,148.1667,48.34,67,0,11.12,clear sky
319,Aquiraz,BR,-3.9014,-38.3911,83.17,61,47,14.74,scattered clouds
320,Maniitsoq,GL,65.4167,-52.9,40.68,92,100,6.02,overcast clouds
321,Vostok,RU,46.4856,135.8833,58.19,80,78,5.99,broken clouds
322,Kitimat,CA,54.0524,-128.6534,57.58,76,9,3.85,clear sky
323,Luquillo,PR,18.3725,-65.7166,87.91,66,54,11.27,broken clouds
324,Batagay,RU,67.6333,134.6333,60.4,74,76,4.43,broken clouds
325,Roma,US,43.2128,-75.4557,70.95,95,100,4.0,overcast clouds
326,Opuwo,NA,-18.0607,13.84,88.68,10,0,9.37,clear sky
327,Benguela,AO,-12.5763,13.4055,73.9,73,33,9.86,scattered clouds
328,Magadan,RU,59.5667,150.8,63.54,78,100,8.05,overcast clouds
329,Huarmey,PE,-10.0681,-78.1522,63.55,77,67,5.5,broken clouds
330,Plettenberg Bay,ZA,-34.0527,23.3716,69.08,53,41,6.06,scattered clouds
331,Cabo San Lucas,MX,22.8909,-109.9124,82.51,84,89,3.0,overcast clouds
332,Biltine,TD,14.5333,20.9167,93.81,39,35,10.51,scattered clouds
333,Lapua,FI,62.9693,23.0088,73.99,39,60,4.92,broken clouds
334,Barrow,US,71.2906,-156.7887,35.37,99,100,13.24,light rain
335,Makakilo City,US,21.3469,-158.0858,77.32,73,40,0.0,scattered clouds
336,Half Moon Bay,US,37.4636,-122.4286,64.9,86,100,9.22,overcast clouds
337,Souillac,MU,-20.5167,57.5167,70.18,88,75,19.57,light rain
338,Vestmannaeyjar,IS,63.4427,-20.2734,52.79,100,100,19.57,mist
339,Margate,GB,51.3813,1.3862,76.89,67,59,5.99,broken clouds
340,Gimli,CA,50.6336,-96.9907,65.39,65,0,19.01,clear sky
341,Bandeirantes,BR,-23.11,-50.3675,67.77,87,100,9.89,moderate rain
342,Tilichiki,RU,60.4667,166.1,53.53,92,100,4.94,overcast clouds
343,Ban Phai,TH,16.06,102.731,77.22,93,100,9.42,light rain
344,Ossora,RU,59.2353,163.0719,56.91,86,100,9.46,overcast clouds
345,Barkhan,PK,29.8977,69.5256,89.94,39,13,9.06,few clouds
346,Bangangte,CM,5.1409,10.5198,68.81,88,94,2.82,moderate rain
347,Castro,BR,-24.7911,-50.0119,56.55,98,100,7.02,heavy intensity rain
348,Mazagao,BR,-0.115,-51.2894,89.65,51,85,5.26,overcast clouds
349,Eyrarbakki,IS,63.863,-21.1481,55.2,96,100,19.44,overcast clouds
350,Mugur-Aksy,RU,50.35,90.5,55.2,81,91,4.7,overcast clouds
351,Shenjiamen,CN,29.9576,122.298,81.7,85,86,20.02,overcast clouds
352,Hirara,JP,24.8,125.2833,84.15,78,12,11.77,few clouds
353,Sitka,US,57.0531,-135.33,50.54,95,100,2.48,overcast clouds
354,Port Blair,IN,11.6667,92.75,82.44,78,75,17.34,mist
355,Habiganj,BD,24.3833,91.4167,81.01,84,30,5.93,scattered clouds
356,Saint George,US,37.1041,-113.5841,84.63,43,0,3.44,clear sky
357,Uvat,RU,59.1433,68.8953,77.83,56,11,4.76,few clouds
358,Erenhot,CN,43.6475,111.9767,81.68,27,0,6.71,clear sky
359,Port Hedland,AU,-20.3167,118.5667,69.85,30,100,6.91,overcast clouds
360,Palana,RU,59.1167,159.9667,55.06,83,100,8.63,overcast clouds
361,Inhambane,MZ,-23.865,35.3833,78.78,57,20,9.22,few clouds
362,Xapuri,BR,-10.6517,-68.5044,85.44,59,45,3.91,scattered clouds
363,Pailon,BO,-17.65,-62.75,61.7,82,100,15.01,overcast clouds
364,Haines Junction,CA,60.7522,-137.5108,35.55,100,98,0.0,overcast clouds
365,Husavik,IS,66.0449,-17.3389,54.37,82,100,11.88,overcast clouds
366,Zhuhai,CN,22.2769,113.5678,78.58,100,40,19.57,scattered clouds
367,Mehamn,NO,71.0357,27.8492,58.91,77,75,16.11,drizzle rain
368,Pringsewu,ID,-5.3582,104.9744,73.62,92,61,2.86,broken clouds
369,Nanortalik,GL,60.1432,-45.2371,43.61,85,27,13.2,scattered clouds
370,Praia,CV,14.9215,-23.5087,84.74,70,75,10.36,broken clouds
371,Lebork,PL,54.5392,17.7501,75.43,47,78,7.56,broken clouds
372,Breytovo,RU,58.2993,37.8617,67.69,57,27,9.26,scattered clouds
373,San Isidro,PE,-12.1167,-77.05,60.01,86,100,8.05,overcast clouds
374,Hobyo,SO,5.3505,48.5268,79.77,71,100,29.82,overcast clouds
375,Srednekolymsk,RU,67.45,153.6833,62.85,69,86,7.11,overcast clouds
376,Road Town,VG,18.4167,-64.6167,86.04,74,40,14.97,scattered clouds
377,Portland,US,45.5234,-122.6762,63.81,86,80,1.99,broken clouds
378,Kachiry,KZ,53.0675,76.1036,68.32,72,99,4.07,overcast clouds
379,Ende,ID,-8.8432,121.6623,75.94,87,5,1.5,clear sky
380,Port Hueneme,US,34.1478,-119.1951,76.78,86,75,3.44,broken clouds
381,Paamiut,GL,61.994,-49.6678,41.76,94,99,12.71,overcast clouds
382,Verkhnyaya Inta,RU,65.9811,60.3094,62.98,47,50,12.3,scattered clouds
383,Shimoda,JP,34.6667,138.95,81.1,90,100,14.38,overcast clouds
384,Manadhoo,MV,5.7667,73.3833,81.07,85,93,12.37,overcast clouds
385,Sao Joao Da Barra,BR,-21.6403,-41.0511,77.09,69,23,7.09,few clouds
386,Gustrow,DE,53.7972,12.1734,74.07,46,75,6.91,broken clouds
387,Hafizabad,PK,32.0679,73.6854,93.24,55,82,4.54,broken clouds
388,Neyshabur,IR,36.2133,58.7958,87.64,19,74,11.97,broken clouds
389,Wanlaweyn,SO,2.6185,44.8938,85.23,47,99,25.26,overcast clouds
390,Menen,BE,50.7972,3.1225,87.03,37,4,12.77,clear sky
391,Chunoyar,RU,57.4467,97.3217,62.35,78,83,2.59,broken clouds
392,Saint Anthony,US,45.0205,-93.218,69.03,85,0,5.75,clear sky
393,Ust-Ilimsk,RU,58.0006,102.6619,60.85,66,77,3.69,broken clouds
394,Lososina,RU,48.9975,140.3106,60.39,68,57,5.12,broken clouds
395,Rio Gallegos,AR,-51.6226,-69.2181,35.65,87,0,5.75,clear sky
396,Ouadda,CF,8.0777,22.4007,75.22,93,100,4.7,moderate rain
397,Yumen,CN,40.2833,97.2,77.99,50,6,7.99,clear sky
398,Luderitz,NA,-26.6481,15.1594,62.53,62,0,10.11,clear sky
399,Port Lincoln,AU,-34.7333,135.8667,58.35,51,100,19.35,moderate rain
400,Ostersund,SE,63.1792,14.6357,64.85,72,0,3.44,clear sky
401,Franklin,US,39.9667,-83.0166,81.23,84,75,11.5,broken clouds
402,Oussouye,SN,12.485,-16.5469,82.58,73,96,7.56,moderate rain
403,Santa Rosa,PH,14.3122,121.1114,84.18,81,100,1.63,overcast clouds
404,Kasama,ZM,-10.2129,31.1808,80.62,20,13,7.23,few clouds
405,Baoro,CF,5.6667,15.9667,82.0,61,77,5.12,broken clouds
406,Khorramshahr,IR,30.4397,48.1664,123.76,7,0,13.8,clear sky
407,Roald,NO,62.5833,6.1333,66.9,72,75,11.5,broken clouds
408,Hoquiam,US,46.9809,-123.8893,61.95,95,100,3.06,overcast clouds
409,Turkistan,KZ,43.0,68.0,87.26,20,5,17.6,clear sky
410,Hofn,IS,64.2539,-15.2082,52.32,96,100,20.76,overcast clouds
411,Neuquen,AR,-38.9516,-68.0591,40.89,87,40,0.0,scattered clouds
412,Viedma,AR,-40.8135,-62.9967,49.8,65,58,18.21,broken clouds
413,Pipar,IN,26.3856,73.5378,93.02,53,66,6.04,light rain
414,Katsuura,JP,35.1333,140.3,81.5,89,100,22.24,overcast clouds
415,Aklavik,CA,68.2191,-135.0107,53.2,74,84,6.24,broken clouds
416,Moanda,GA,-1.5575,13.2178,80.83,26,21,4.03,few clouds
417,Sohag,EG,26.557,31.6948,102.49,15,0,18.92,clear sky
418,Lixourion,GR,38.2019,20.4314,85.8,53,0,16.82,clear sky
419,Torres,BR,-29.3353,-49.7269,61.83,96,100,10.36,light rain
420,Parkes,AU,-33.1333,148.1833,40.35,79,5,6.62,clear sky
421,Denpasar,ID,-8.65,115.2167,78.46,88,75,11.5,broken clouds
422,Cervo,ES,43.6702,-7.4101,73.42,75,1,13.38,clear sky
423,Serrinha,BR,-11.6642,-39.0075,81.34,36,33,8.41,scattered clouds
424,Comodoro Rivadavia,AR,-45.8667,-67.5,49.86,43,0,17.27,clear sky
425,Saint-Joseph,RE,-21.3667,55.6167,70.18,76,75,17.58,broken clouds
426,Chhatarpur,IN,24.9,79.6,83.48,69,53,7.99,broken clouds
427,Beira,MZ,-19.8436,34.8389,77.09,69,0,19.57,clear sky
428,Abnub,EG,27.2696,31.1511,100.62,16,0,16.22,clear sky
429,Talcahuano,CL,-36.7167,-73.1167,44.28,87,0,8.05,clear sky
430,Strezhevoy,RU,60.7333,77.5889,75.88,59,65,5.41,broken clouds
431,Waipawa,NZ,-41.4122,175.5153,43.12,83,97,11.36,overcast clouds
432,Najran,SA,17.4924,44.1277,81.25,17,99,14.9,overcast clouds
433,Lata,PT,40.1629,-8.3327,95.32,22,0,9.69,clear sky
434,Tocopilla,CL,-22.092,-70.1979,68.94,49,0,9.26,clear sky
435,Kavaratti,IN,10.5669,72.642,80.83,83,100,19.42,overcast clouds
436,San Cristobal,VE,7.7669,-72.225,73.58,49,55,7.11,broken clouds
437,Vyazma,RU,55.2104,34.2951,69.44,50,94,6.73,overcast clouds
438,Christchurch,NZ,-43.5333,172.6333,37.6,66,100,3.44,overcast clouds
439,Pinega,RU,64.7001,43.3936,65.7,49,75,3.15,broken clouds
440,Guanare,VE,9.0418,-69.7421,83.03,69,58,0.92,broken clouds
441,Hami,CN,42.8,93.45,95.5,15,0,8.3,clear sky
442,Wattegama,LK,6.7989,81.4808,82.04,54,59,6.98,broken clouds
443,Marzuq,YE,14.4,46.4667,86.49,49,100,10.02,overcast clouds
444,Mount Isa,AU,-20.7333,139.5,62.37,27,0,6.91,clear sky
445,Tingi,TZ,-11.3,35.0333,72.18,41,12,4.61,few clouds
446,Fort Nelson,CA,58.8053,-122.7002,42.39,93,20,2.3,few clouds
447,Panama City,PA,8.9936,-79.5197,86.38,81,20,4.61,few clouds
448,Asau,RO,46.4333,26.4,83.28,48,87,8.68,overcast clouds
449,Tual,ID,-5.6667,132.75,79.41,80,100,11.95,overcast clouds
450,Visby,SE,57.6409,18.296,68.83,68,0,8.05,clear sky
451,Lalibela,ET,12.0333,39.0333,59.52,84,100,2.33,overcast clouds
452,Kloulklubed,PW,7.0419,134.2556,83.46,72,81,8.43,broken clouds
453,San Ramon,US,37.7799,-121.978,63.48,87,0,5.99,clear sky
454,Perugia,IT,43.05,12.55,88.21,46,43,6.89,scattered clouds
455,Amahai,ID,-3.3333,128.9167,76.21,92,100,1.59,light rain
456,Mogzon,RU,51.7435,111.9606,49.78,67,0,4.25,clear sky
457,Kenai,US,60.5544,-151.2583,53.1,87,100,19.48,overcast clouds
458,Aksu,CN,41.1231,80.2644,83.73,39,12,3.04,few clouds
459,Mandal,IN,25.45,74.5667,85.59,69,99,6.98,overcast clouds
460,Dimitrovgrad,RU,54.2139,49.6184,80.17,52,94,6.42,overcast clouds
461,Oistins,BB,13.0667,-59.5333,86.09,74,40,18.41,scattered clouds
462,Puerto Colombia,CO,10.9878,-74.9547,84.29,73,21,6.13,few clouds
463,Pedernales,DO,18.0384,-71.744,87.75,55,11,3.76,few clouds
464,Pundaguitan,PH,6.3711,126.1689,82.04,72,95,3.69,overcast clouds
465,Wanning,CN,18.8003,110.3967,78.58,92,100,10.07,overcast clouds
466,Lamar,US,33.6668,-95.5836,84.63,69,100,8.93,overcast clouds
467,Kampene,CD,-3.6,26.6667,95.83,18,51,0.76,broken clouds
468,Berndorf,AT,47.9457,16.1097,84.47,39,40,9.22,scattered clouds
469,Sal Rei,CV,16.1833,-22.9167,82.6,74,75,6.91,broken clouds
470,Itiuba,BR,-10.6917,-39.8536,81.91,32,10,8.1,clear sky
471,Klaksvik,FO,62.2266,-6.589,54.52,94,100,29.68,moderate rain
472,Dubbo,AU,-32.25,148.6167,42.93,87,6,9.22,clear sky
473,Pozo Colorado,PY,-23.4923,-58.7972,64.96,47,5,13.27,clear sky
474,Yar-Sale,RU,66.8333,70.8333,64.11,50,100,9.84,overcast clouds
475,Parabel,RU,58.6978,81.4825,67.26,74,99,2.13,overcast clouds
476,Caramay,PH,10.1815,119.236,80.08,83,91,0.74,light rain
477,Shelbyville,US,35.4834,-86.4603,81.32,78,0,5.75,clear sky
478,Neftcala,AZ,39.3742,49.2472,83.07,52,2,13.98,clear sky
479,Darasun,RU,51.6667,114.0,51.71,64,14,3.91,few clouds
480,Bergen,NO,60.392,5.328,65.16,85,75,11.5,broken clouds
481,Fereydunshahr,IR,32.941,50.121,80.73,23,93,3.53,overcast clouds
482,Fallon,US,39.4735,-118.7774,68.92,83,94,2.55,overcast clouds
483,Ponta Pora,BR,-22.5361,-55.7256,53.51,100,100,18.41,mist
484,Padang,ID,-0.9492,100.3543,80.65,84,55,1.79,broken clouds
485,Puerto Leguizamo,CO,-0.1934,-74.7819,76.55,88,100,2.33,overcast clouds
486,Stornoway,GB,58.2093,-6.3865,60.76,88,75,24.16,broken clouds
487,Chara,RU,56.9064,118.2631,50.27,85,100,1.81,light rain
488,Amboasary,MG,-25.0333,46.3833,73.31,67,0,15.55,clear sky
489,Sola,VU,-13.8833,167.55,79.25,75,1,1.88,clear sky
490,Ures,MX,29.4333,-110.4,77.74,75,100,4.74,overcast clouds
491,Kambia,SL,9.1167,-12.9167,83.3,76,81,7.78,light rain
492,Flinders,AU,-34.5833,150.8552,54.18,81,90,5.99,overcast clouds
493,Ulladulla,AU,-35.35,150.4667,49.15,85,48,9.8,scattered clouds
494,Ouallam,NE,14.3188,2.0866,92.12,44,54,7.18,broken clouds
495,Quatre Cocos,MU,-20.2078,57.7625,69.91,77,61,22.26,light rain
496,Baker City,US,44.7749,-117.8344,78.19,30,99,3.98,overcast clouds
497,Manitowoc,US,44.0667,-87.8001,66.38,79,0,1.99,clear sky
498,Washington,US,47.5001,-120.5015,72.57,44,100,2.68,overcast clouds
499,Awbari,LY,26.5921,12.7805,101.77,11,0,5.86,clear sky
500,Lagoa,PT,39.05,-27.9833,72.54,79,11,7.54,light rain
501,Manzil Salim,TN,35.8567,8.4765,94.24,14,0,9.57,clear sky
502,Nobeoka,JP,32.5833,131.6667,79.77,91,99,3.67,overcast clouds
503,Turayf,SA,31.6725,38.6637,100.65,27,0,11.5,clear sky
504,Isangel,VU,-19.55,169.2667,72.72,86,60,10.11,broken clouds
505,Lasa,IT,46.6166,10.7002,83.7,34,6,2.77,clear sky
506,Lima,PE,-12.0432,-77.0282,58.89,86,100,8.05,overcast clouds
507,Sigli,ID,5.3848,95.9609,81.05,74,98,2.46,overcast clouds
508,Winsum,NL,53.33,6.5208,78.1,60,18,11.01,few clouds
509,Qazvin,IR,36.2797,50.0049,91.02,33,0,11.5,clear sky
510,Manyana,BW,-23.4,21.7167,78.55,7,0,6.44,clear sky
511,Santa Isabel Do Rio Negro,BR,-0.4139,-65.0192,87.69,55,8,3.65,clear sky
512,Sault Sainte Marie,CA,46.5168,-84.3333,60.62,94,20,6.91,few clouds
513,Namatanai,PG,-3.6667,152.4333,78.55,82,87,3.36,overcast clouds
514,Tancanhuitz,MX,21.6,-98.9667,77.38,71,8,1.43,clear sky
515,Krasnoarmeyskoye,RU,52.7182,50.0322,83.82,43,82,11.27,broken clouds
516,Dudinka,RU,69.4058,86.1778,58.62,66,50,5.48,scattered clouds
517,Muroto,JP,33.2833,134.15,83.52,80,95,9.6,overcast clouds
518,Tommot,RU,58.9564,126.2925,53.26,97,100,7.72,light rain
519,Armilla,ES,37.141,-3.6185,99.14,23,0,9.22,clear sky
520,Katherine,AU,-14.4667,132.2667,66.52,48,31,3.44,scattered clouds
521,Bodden Town,KY,19.2833,-81.25,82.99,75,40,16.11,thunderstorm
522,Aksarka,RU,66.5606,67.7975,65.79,46,82,13.02,broken clouds
523,Puerto Ayacucho,VE,5.6639,-67.6236,80.8,81,91,4.32,overcast clouds
524,Sakakah,SA,29.9697,40.2064,110.77,13,0,3.58,clear sky
525,Tebingtinggi,ID,3.3285,99.1625,77.07,90,81,1.92,broken clouds
526,Puerto Boyaca,CO,5.9758,-74.5885,78.21,83,100,1.81,overcast clouds
527,Rawson,AR,-43.3002,-65.1023,45.28,52,100,8.95,overcast clouds
528,Waingapu,ID,-9.6567,120.2641,76.51,86,77,8.14,broken clouds
529,Miri,MY,4.4148,114.0089,75.34,100,40,4.61,scattered clouds
530,Poso,ID,-1.3959,120.7524,76.66,87,86,6.11,overcast clouds
531,Xinyu,CN,27.8043,114.9334,84.87,59,54,2.55,broken clouds
532,Marienburg,PL,54.0359,19.0266,73.04,43,74,9.55,broken clouds
533,Batemans Bay,AU,-35.7167,150.1833,44.46,91,16,6.02,few clouds
534,Doha,QA,25.2867,51.5333,102.18,47,75,11.5,broken clouds
535,Eyl,SO,7.9803,49.8164,84.67,56,100,28.1,overcast clouds
536,Tomatlan,MX,19.9333,-105.25,74.93,92,100,3.04,overcast clouds
537,Kalabo,ZM,-14.97,22.6814,89.82,7,0,8.63,clear sky
538,Vanavara,RU,60.34,102.2797,54.79,93,95,5.14,light rain
539,Sarangani,PH,5.4033,125.4636,79.77,78,98,0.85,overcast clouds
540,Sayyan,YE,15.1718,44.3244,73.83,38,100,11.1,overcast clouds
541,Zaysan,KZ,47.4667,84.8667,74.34,34,0,3.2,clear sky
542,Dutlwe,BW,-23.9833,23.9,77.59,11,0,3.44,clear sky
543,Lashio,MM,22.9333,97.75,70.29,96,66,2.19,broken clouds
544,Fukue,JP,32.6881,128.8419,83.25,82,100,8.86,overcast clouds
545,Hesla,IN,24.0667,85.8833,80.19,77,66,13.76,broken clouds
546,Kailua,US,21.4022,-157.7394,78.78,80,75,9.22,broken clouds
547,Hambantota,LK,6.1241,81.1185,84.54,70,20,9.22,few clouds
548,Scarborough,GB,54.2797,-0.4044,78.33,58,38,5.01,scattered clouds
549,Mayor Pablo Lagerenza,PY,-19.9309,-60.7718,58.14,75,100,10.49,overcast clouds
550,Hay River,CA,60.8156,-115.7999,52.34,80,8,2.57,clear sky
551,Labuhan,ID,-6.8844,112.2051,79.45,79,72,6.49,broken clouds
552,Bristol,US,41.8334,-71.1662,91.29,74,25,5.01,scattered clouds
553,Richards Bay,ZA,-28.783,32.0377,70.77,62,14,5.26,few clouds
554,Sur,OM,22.5667,59.5289,91.02,57,99,3.06,overcast clouds
555,Guipavas,FR,48.4352,-4.3972,80.65,49,20,18.41,few clouds
556,Berbera,SO,10.4396,45.0143,89.83,61,78,7.74,broken clouds
557,Dali,CN,25.7,100.1833,66.25,79,100,2.17,light rain
558,Cabatuan,PH,10.8794,122.486,76.55,91,99,2.44,overcast clouds
559,Ara,IN,25.5667,84.6667,87.69,55,92,18.14,overcast clouds
560,Suksun,RU,57.1431,57.3949,78.6,67,73,3.47,broken clouds
561,Petropavlovsk-Kamchatskiy,RU,53.0452,158.6483,53.94,97,100,14.18,light rain
562,Varkaus,FI,62.3153,27.873,70.3,35,45,4.61,scattered clouds
563,Kushiro,JP,42.975,144.3747,68.61,99,100,5.06,light rain
564,Vite,IN,17.2833,74.55,69.91,91,100,23.15,light rain
565,Lazaro Cardenas,MX,17.9583,-102.2,79.29,83,77,5.14,broken clouds
566,Aberystwyth,GB,52.4155,-4.0829,80.71,63,35,6.29,scattered clouds
567,Shingu,JP,33.7333,135.9833,79.25,92,100,5.01,overcast clouds
568,Nagorsk,RU,59.3172,50.8078,71.29,76,88,2.21,moderate rain
569,Nurlat,RU,54.4277,50.8051,82.71,42,91,4.88,overcast clouds
570,Stillwater,US,36.1156,-97.0584,80.87,80,0,9.22,clear sky
571,Da Nang,VN,16.0678,108.2208,78.78,94,75,0.0,heavy intensity rain
572,Guaratuba,BR,-25.8828,-48.5747,63.05,97,100,7.58,heavy intensity rain
573,Meiktila,MM,20.8667,95.8667,76.08,85,5,10.04,clear sky
574,Kysyl-Syr,RU,63.8986,122.7617,57.65,82,61,6.87,broken clouds
575,Karpogory,RU,64.0019,44.4451,65.84,48,100,2.08,overcast clouds
576,Tongliao,CN,43.6125,122.2653,67.5,45,0,8.93,clear sky
577,Aguimes,ES,27.9054,-15.4461,76.66,61,20,32.21,few clouds
578,Kochubey,RU,44.3861,46.5825,87.06,30,14,14.43,few clouds
579,Zhezkazgan,KZ,47.8043,67.7144,73.27,35,98,14.65,overcast clouds
580,Havoysund,NO,70.9963,24.6622,55.63,86,100,30.94,overcast clouds
581,Sisimiut,GL,66.9395,-53.6735,39.92,90,100,3.56,overcast clouds
582,La Romana,DO,18.4273,-68.9728,88.7,50,18,16.46,few clouds
583,Shigony,RU,53.3875,48.6777,80.83,50,92,7.07,overcast clouds
584,Fethiye,TR,36.6217,29.1164,87.67,55,15,6.49,few clouds
585,Batagay-Alyta,RU,67.8006,130.4114,53.06,79,7,7.4,clear sky
586,Mahuva,IN,21.0914,71.7622,82.81,83,100,4.32,overcast clouds
587,Bubaque,GW,11.2833,-15.8333,80.31,80,90,9.4,light rain
588,Saint-Pierre,RE,-21.3393,55.4781,71.28,72,75,21.85,broken clouds
589,Leirvik,NO,59.7798,5.5005,66.61,77,75,4.61,broken clouds
590,Ejido,VE,8.5514,-71.2375,79.18,50,49,4.03,scattered clouds
591,Dingzhou,CN,38.5131,114.9956,66.15,96,96,4.47,overcast clouds
592,Barcelos,PT,41.5388,-8.6151,66.34,55,7,7.85,clear sky
593,Havre,FR,49.5833,0.3333,86.34,53,0,20.71,clear sky
594,Black River,JM,18.0264,-77.8487,88.41,57,94,4.43,overcast clouds
595,Vestmanna,FO,62.1564,-7.1664,52.72,100,100,0.0,moderate rain
596,Atikokan,CA,48.7555,-91.6216,73.76,47,0,14.05,clear sky
597,Itoman,JP,26.1247,127.6694,84.58,84,2,6.91,clear sky
598,Tokonou,GN,9.65,-9.7833,82.45,67,99,4.54,overcast clouds
599,Concepcion,CL,-36.827,-73.0498,48.0,76,0,6.91,clear sky
600,Rio Grande,BR,-32.035,-52.0986,59.11,71,100,18.07,overcast clouds
601,Palma Di Montechiaro,IT,37.1926,13.765,83.84,56,0,10.69,clear sky
602,Luohe,CN,33.5717,114.0353,68.61,94,64,8.9,broken clouds
603,Mayo,US,38.8876,-76.5119,90.46,73,0,4.61,clear sky
604,Corner Brook,CA,48.9667,-57.9484,55.56,98,100,5.61,overcast clouds
605,Tessalit,ML,20.1986,1.0114,102.85,23,63,12.28,broken clouds
606,Melfi,IT,40.9965,15.6514,82.96,68,71,7.63,broken clouds
607,Gamba,GA,-2.65,10.0,75.54,70,5,11.05,clear sky
608,Sioux Lookout,CA,50.1001,-91.917,71.67,68,40,12.66,scattered clouds
609,Taft,IR,31.7471,54.2088,103.95,12,20,6.91,few clouds
610,Nandyal,IN,15.4833,78.4833,79.47,70,100,14.92,overcast clouds
611,Kenitra,MA,34.261,-6.5802,79.56,62,7,12.5,clear sky
612,Coihaique,CL,-45.5752,-72.0662,46.35,66,75,4.61,broken clouds
613,Clyde River,CA,70.4692,-68.5914,46.63,71,20,26.46,few clouds
614,Champerico,GT,14.3,-91.9167,79.34,78,100,3.11,overcast clouds
615,Den Helder,NL,52.9599,4.7593,79.02,65,75,10.36,broken clouds
616,Fort-Shevchenko,KZ,44.5086,50.263,79.39,49,72,28.7,broken clouds
617,Pahrump,US,36.2083,-115.9839,83.44,44,51,1.99,broken clouds
618,Oranjemund,NA,-28.55,16.4333,59.05,77,2,10.54,clear sky
619,Manicore,BR,-5.8092,-61.3003,85.95,70,0,6.91,clear sky
620,Benidorm,ES,38.5382,-0.131,92.32,66,0,7.0,clear sky
621,Malakal,SS,9.5334,31.6605,78.26,88,100,4.5,light rain
622,Trairi,BR,-3.2778,-39.2689,86.74,53,6,14.72,clear sky
623,Rosetta,EG,31.4044,30.4164,82.2,67,0,11.79,clear sky
624,Singaraja,ID,-8.112,115.0882,78.62,82,37,5.66,scattered clouds
625,Khandbari,NP,27.3747,87.2039,75.04,95,76,1.43,broken clouds
626,Imbituba,BR,-28.24,-48.6703,63.86,99,100,11.14,overcast clouds
627,Alice Springs,AU,-23.7,133.8833,67.55,14,40,5.75,scattered clouds
628,Aberdeen,GB,57.1437,-2.0981,77.54,57,75,13.8,broken clouds
629,Brae,GB,60.3964,-1.353,59.02,91,100,25.57,overcast clouds
630,Komsomolskiy,UZ,40.4272,71.7189,90.32,25,11,6.91,few clouds
631,Prince Rupert,CA,54.3161,-130.3201,58.69,90,0,6.91,clear sky
632,Shatalovo,RU,54.334,32.4465,67.91,64,48,10.96,scattered clouds
633,Cazones,MX,20.7167,-97.3167,82.2,83,75,0.0,broken clouds
634,Paita,PE,-5.0892,-81.1144,66.58,74,35,10.16,scattered clouds
635,Leh,IN,34.1667,77.5833,71.24,36,97,6.76,overcast clouds
636,Kargasok,RU,59.0556,80.8572,69.28,67,84,2.19,broken clouds
637,Bayanday,RU,53.0661,105.5139,54.5,71,62,3.83,broken clouds
638,Lavrentiya,RU,65.5833,-171.0,40.3,81,98,9.24,overcast clouds
639,Avigliana,IT,45.0771,7.3986,90.46,39,20,5.75,few clouds
640,Normandin,CA,48.8333,-72.5321,66.33,63,16,4.61,few clouds
641,Vrangel,RU,42.7297,133.0839,67.87,87,0,5.66,clear sky
642,Vao,NC,-22.6667,167.4833,67.75,57,39,13.62,scattered clouds
643,Thinadhoo,MV,0.5333,72.9333,82.42,69,74,3.51,broken clouds
644,Kiruna,SE,67.8557,20.2251,59.92,63,40,10.36,scattered clouds
645,Alta Floresta,BR,-9.8756,-56.0861,93.02,52,0,5.75,clear sky
646,Valparaiso,CL,-33.0393,-71.6273,64.63,44,0,3.44,clear sky
647,Maralal,KE,1.0968,36.698,68.02,61,100,1.79,light rain
648,Calvinia,ZA,-31.4707,19.776,69.42,18,29,15.05,scattered clouds
649,Payakumbuh,ID,-0.2202,100.6308,70.34,98,43,3.22,scattered clouds
650,Conchas,BR,-23.0153,-48.0106,72.19,66,100,5.44,overcast clouds
651,La Asuncion,VE,11.0333,-63.8628,87.53,70,25,13.8,scattered clouds
652,San Blas,MX,21.5167,-105.2667,76.89,77,100,0.83,overcast clouds
653,Hvolsvollur,IS,63.7533,-20.2243,52.47,96,100,17.87,overcast clouds
654,Merauke,ID,-8.4667,140.3333,75.99,86,96,13.65,overcast clouds
655,Olinda,BR,-8.0089,-34.8553,82.13,61,40,12.66,scattered clouds
656,Dauphin,CA,51.1494,-100.0502,66.34,63,0,11.5,clear sky
657,Lakatoro,VU,-16.0999,167.4164,76.8,85,43,5.64,scattered clouds
658,Barranca,PE,-10.75,-77.7667,63.37,73,73,6.31,broken clouds
659,Kedrovyy,RU,56.1667,91.8167,57.87,68,94,3.09,overcast clouds
660,Solnechnyy,RU,50.7214,136.6319,52.75,87,73,4.14,broken clouds
661,Takoradi,GH,4.8845,-1.7554,77.14,75,100,12.86,overcast clouds
662,San Juan,AR,-31.5375,-68.5364,50.5,43,1,12.91,clear sky
663,Elliot Lake,CA,46.3834,-82.6331,66.04,48,0,3.67,clear sky
664,Belaya Gora,RU,68.5333,146.4167,58.44,79,100,8.34,overcast clouds
665,Savinka,RU,50.0785,47.0994,88.59,22,64,6.96,broken clouds
666,Avera,US,33.194,-82.5271,85.51,57,10,6.42,clear sky
667,Lanzhou,CN,36.0564,103.7922,83.35,56,100,7.72,overcast clouds
668,Angatuba,BR,-23.4897,-48.4128,64.76,85,100,3.0,overcast clouds
669,Tarakan,ID,3.3,117.6333,78.3,94,100,2.3,overcast clouds
670,Coahuayana,MX,18.7333,-103.6833,81.39,75,95,2.86,overcast clouds
671,Munteni,RO,45.9333,27.4333,89.28,26,73,12.82,broken clouds
672,Beloha,MG,-25.1667,45.05,68.54,78,0,16.2,clear sky
673,Almaznyy,RU,48.0448,40.045,90.9,17,0,10.83,clear sky
674,Sabzevar,IR,36.2126,57.6819,88.88,33,40,18.41,scattered clouds
675,Ishigaki,JP,24.3448,124.1572,82.53,89,20,2.3,few clouds
676,Yakeshi,CN,49.2833,120.7333,55.54,56,53,10.36,broken clouds
677,Palmas,BR,-10.2128,-48.3603,94.87,28,0,6.91,clear sky
678,Koson,UZ,39.0375,65.585,82.72,15,14,10.22,few clouds
679,Ayan,RU,56.45,138.1667,55.6,90,100,7.78,overcast clouds
680,Chumikan,RU,54.7183,135.315,53.04,97,100,4.34,overcast clouds
681,Hurzuf,UA,44.55,34.2833,82.56,51,62,14.41,broken clouds
682,Puerto Del Rosario,ES,28.5004,-13.8627,78.55,69,20,18.41,few clouds
683,Bosanska Dubica,BA,45.1767,16.8094,71.71,48,100,6.89,overcast clouds
684,Harper,LR,4.375,-7.7169,78.67,67,48,10.18,scattered clouds
